{
"type": "FeatureCollection",
"name": "toronto_bicycle_parking1",
"crs": { "type": "name", "properties": { "name": "urn:ogc:def:crs:OGC:1.3:CRS84" } },
"features": [
{ "type": "Feature", "properties": { "id": 1, "address": "21 Gerrard St E", "postal_code": "None", "municipality": "former Toronto", "city": "Toronto", "ward": "Toronto Centre (13)", "name": "None", "parking_type": "Bike Rack", "bike_capacity": 16, "size": 2.9, "installed": 2016.0 }, "geometry": { "type": "Point", "coordinates": [ -79.3810999113837, 43.659162517139599 ] } },
{ "type": "Feature", "properties": { "id": 2, "address": "213 Delaware Ave", "postal_code": "M6H 2T4", "municipality": "former Toronto", "city": "Toronto", "ward": "Davenport (9)", "name": "None", "parking_type": "Angled Bike Rack", "bike_capacity": 5, "size": 2.9, "installed": 2014.0 }, "geometry": { "type": "Point", "coordinates": [ -79.427870818200105, 43.662057399096597 ] } },
{ "type": "Feature", "properties": { "id": 3, "address": "213 Delaware Ave", "postal_code": "M6H 2T4", "municipality": "former Toronto", "city": "Toronto", "ward": "Davenport (9)", "name": "None", "parking_type": "Bike Corral", "bike_capacity": 8, "size": 3.0, "installed": 2014.0 }, "geometry": { "type": "Point", "coordinates": [ -79.427870818200105, 43.662057399096597 ] } },
{ "type": "Feature", "properties": { "id": 4, "address": "2198 Yonge St", "postal_code": "M4S 2B8", "municipality": "former Toronto", "city": "Toronto", "ward": "Toronto-St. Paul's (12)", "name": "None", "parking_type": "Bike Rack", "bike_capacity": 16, "size": 2.9, "installed": 2016.0 }, "geometry": { "type": "Point", "coordinates": [ -79.398423907157294, 43.705882789460603 ] } },
{ "type": "Feature", "properties": { "id": 5, "address": "222 Spadina Ave", "postal_code": "M5T 3B3", "municipality": "former Toronto", "city": "Toronto", "ward": "Spadina-Fort York (10)", "name": "None", "parking_type": "Bike Rack", "bike_capacity": 16, "size": 2.9, "installed": 2016.0 }, "geometry": { "type": "Point", "coordinates": [ -79.397837765026694, 43.650928663858799 ] } },
{ "type": "Feature", "properties": { "id": 6, "address": "236 Augusta Ave", "postal_code": "M5T 2L7", "municipality": "former Toronto", "city": "Toronto", "ward": "University-Rosedale (11)", "name": "None", "parking_type": "Bike Corral", "bike_capacity": 24, "size": 12.0, "installed": 2012.0 }, "geometry": { "type": "Point", "coordinates": [ -79.402594874568294, 43.655345506152202 ] } },
{ "type": "Feature", "properties": { "id": 7, "address": "36 Lisgar St", "postal_code": "M6J 0C7", "municipality": "former Toronto", "city": "Toronto", "ward": "Davenport (9)", "name": "None", "parking_type": "Bike Rack", "bike_capacity": 8, "size": 2.9, "installed": 2016.0 }, "geometry": { "type": "Point", "coordinates": [ -79.4233157461113, 43.641738647050701 ] } },
{ "type": "Feature", "properties": { "id": 8, "address": "468 King St W", "postal_code": "M5V 1L8", "municipality": "former Toronto", "city": "Toronto", "ward": "Spadina-Fort York (10)", "name": "None", "parking_type": "Bike Rack", "bike_capacity": 8, "size": 2.9, "installed": 2016.0 }, "geometry": { "type": "Point", "coordinates": [ -79.395926718529196, 43.645545087492998 ] } },
{ "type": "Feature", "properties": { "id": 9, "address": "5 Walmer Rd", "postal_code": "None", "municipality": "former Toronto", "city": "Toronto", "ward": "University-Rosedale (11)", "name": "None", "parking_type": "Bike Rack", "bike_capacity": 8, "size": 2.9, "installed": 2016.0 }, "geometry": { "type": "Point", "coordinates": [ -79.405378382930806, 43.666702508273502 ] } },
{ "type": "Feature", "properties": { "id": 10, "address": "500 King St W", "postal_code": "M5V 1L9", "municipality": "former Toronto", "city": "Toronto", "ward": "Spadina-Fort York (10)", "name": "None", "parking_type": "Bike Rack", "bike_capacity": 8, "size": 2.9, "installed": 2016.0 }, "geometry": { "type": "Point", "coordinates": [ -79.396805138004794, 43.645315655829599 ] } },
{ "type": "Feature", "properties": { "id": 11, "address": "584 Bloor St W", "postal_code": "M6G 1K4", "municipality": "former Toronto", "city": "Toronto", "ward": "University-Rosedale (11)", "name": "None", "parking_type": "Bike Rack", "bike_capacity": 8, "size": 2.9, "installed": 2017.0 }, "geometry": { "type": "Point", "coordinates": [ -79.4126936121623, 43.665100672693697 ] } },
{ "type": "Feature", "properties": { "id": 12, "address": "692 Bloor St W", "postal_code": "M6G 1L4", "municipality": "former Toronto", "city": "Toronto", "ward": "University-Rosedale (11)", "name": "None", "parking_type": "Bike Rack", "bike_capacity": 16, "size": 2.9, "installed": 2016.0 }, "geometry": { "type": "Point", "coordinates": [ -79.417433253933694, 43.663977244761199 ] } },
{ "type": "Feature", "properties": { "id": 13, "address": "790 Bay St", "postal_code": "M5G 1N8", "municipality": "former Toronto", "city": "Toronto", "ward": "University-Rosedale (11)", "name": "None", "parking_type": "Bike Rack", "bike_capacity": 8, "size": 2.9, "installed": 2016.0 }, "geometry": { "type": "Point", "coordinates": [ -79.386175084542799, 43.660445964350302 ] } },
{ "type": "Feature", "properties": { "id": 14, "address": "241 Wellington St W", "postal_code": "None", "municipality": "former Toronto", "city": "Toronto", "ward": "Spadina-Fort York (10)", "name": "None", "parking_type": "Bike Rack", "bike_capacity": 16, "size": 2.9, "installed": 2016.0 }, "geometry": { "type": "Point", "coordinates": [ -79.390013410198407, 43.644952139772698 ] } },
{ "type": "Feature", "properties": { "id": 15, "address": "40 High Park Ave", "postal_code": "M6P 2S1", "municipality": "former Toronto", "city": "Toronto", "ward": "Parkdale-High Park (4)", "name": "None", "parking_type": "Bike Shelter", "bike_capacity": 20, "size": 10.0, "installed": 2013.0 }, "geometry": { "type": "Point", "coordinates": [ -79.466368147890805, 43.654711222405297 ] } },
{ "type": "Feature", "properties": { "id": 16, "address": "100 Queen St W", "postal_code": "M5H 2N1", "municipality": "former Toronto", "city": "Toronto", "ward": "Spadina-Fort York (10)", "name": "Nathan Phillips Square", "parking_type": "Bike Rack", "bike_capacity": 120, "size": 2.9, "installed": 2015.0 }, "geometry": { "type": "Point", "coordinates": [ -79.383625055213201, 43.6528221423182 ] } },
{ "type": "Feature", "properties": { "id": 17, "address": "686 Queen St W", "postal_code": "M6J 1E7", "municipality": "former Toronto", "city": "Toronto", "ward": "Spadina-Fort York (10)", "name": "None", "parking_type": "Bike Shelter", "bike_capacity": 10, "size": 3.0, "installed": 2015.0 }, "geometry": { "type": "Point", "coordinates": [ -79.4079437964715, 43.646578203586998 ] } },
{ "type": "Feature", "properties": { "id": 18, "address": "180 Shaw St", "postal_code": "M6J 2W5", "municipality": "former Toronto", "city": "Toronto", "ward": "Spadina-Fort York (10)", "name": "Givins/Shaw Ps Jr. & Sr.", "parking_type": "Bike Shelter", "bike_capacity": 18, "size": 7.6, "installed": 2013.0 }, "geometry": { "type": "Point", "coordinates": [ -79.4175862610454, 43.646898908357301 ] } },
{ "type": "Feature", "properties": { "id": 19, "address": "1140 Yonge St", "postal_code": "M4W 2L8", "municipality": "former Toronto", "city": "Toronto", "ward": "University-Rosedale (11)", "name": "None", "parking_type": "Bike Rack", "bike_capacity": 8, "size": 2.9, "installed": 2016.0 }, "geometry": { "type": "Point", "coordinates": [ -79.391047159758401, 43.679510243965701 ] } },
{ "type": "Feature", "properties": { "id": 20, "address": "150 Borough Dr", "postal_code": "M1P 4N7", "municipality": "Scarborough", "city": "Toronto", "ward": "Scarborough Centre (21)", "name": "Albert Campbell Square", "parking_type": "Bike Rack", "bike_capacity": 8, "size": 2.9, "installed": 2014.0 }, "geometry": { "type": "Point", "coordinates": [ -79.257240957811902, 43.772810586741002 ] } },
{ "type": "Feature", "properties": { "id": 21, "address": "350 Victoria St", "postal_code": "M5B 2K3", "municipality": "former Toronto", "city": "Toronto", "ward": "Toronto Centre (13)", "name": "None", "parking_type": "Bike Rack", "bike_capacity": 8, "size": 2.9, "installed": 2016.0 }, "geometry": { "type": "Point", "coordinates": [ -79.380479826029202, 43.657765635465601 ] } },
{ "type": "Feature", "properties": { "id": 22, "address": "266 King St E", "postal_code": "M5A 1K3", "municipality": "former Toronto", "city": "Toronto", "ward": "Toronto Centre (13)", "name": "None", "parking_type": "Bike Rack", "bike_capacity": 8, "size": 2.9, "installed": 2016.0 }, "geometry": { "type": "Point", "coordinates": [ -79.3663420506319, 43.651962721659601 ] } },
{ "type": "Feature", "properties": { "id": 23, "address": "277 Victoria St", "postal_code": "M5B 1W2", "municipality": "former Toronto", "city": "Toronto", "ward": "Toronto Centre (13)", "name": "None", "parking_type": "Bike Rack", "bike_capacity": 8, "size": 2.9, "installed": 2016.0 }, "geometry": { "type": "Point", "coordinates": [ -79.379338570220895, 43.656558912786601 ] } },
{ "type": "Feature", "properties": { "id": 24, "address": "28 Duncan St", "postal_code": "None", "municipality": "former Toronto", "city": "Toronto", "ward": "Spadina-Fort York (10)", "name": "None", "parking_type": "Bike Corral", "bike_capacity": 14, "size": 5.5, "installed": 2015.0 }, "geometry": { "type": "Point", "coordinates": [ -79.389209879582793, 43.648781193064899 ] } },
{ "type": "Feature", "properties": { "id": 25, "address": "35 York St", "postal_code": "M5J 0C7", "municipality": "former Toronto", "city": "Toronto", "ward": "Spadina-Fort York (10)", "name": "None", "parking_type": "Angled Bike Rack", "bike_capacity": 30, "size": 2.9, "installed": 2015.0 }, "geometry": { "type": "Point", "coordinates": [ -79.381465101411194, 43.643790673159501 ] } },
{ "type": "Feature", "properties": { "id": 26, "address": "357 Bay St", "postal_code": "M5H 2T7", "municipality": "former Toronto", "city": "Toronto", "ward": "Toronto Centre (13)", "name": "None", "parking_type": "Bike Rack", "bike_capacity": 8, "size": 2.9, "installed": 2016.0 }, "geometry": { "type": "Point", "coordinates": [ -79.380876999881806, 43.650834404237798 ] } },
{ "type": "Feature", "properties": { "id": 27, "address": "362 Bloor St W", "postal_code": "M5S 1X2", "municipality": "former Toronto", "city": "Toronto", "ward": "University-Rosedale (11)", "name": "The Living Stone Church", "parking_type": "Bike Rack", "bike_capacity": 8, "size": 2.9, "installed": 2016.0 }, "geometry": { "type": "Point", "coordinates": [ -79.405783957248602, 43.666513428172102 ] } },
{ "type": "Feature", "properties": { "id": 28, "address": "375 St Clair Ave W", "postal_code": "None", "municipality": "former Toronto", "city": "Toronto", "ward": "Toronto-St. Paul's (12)", "name": "Nordheimer Ravine", "parking_type": "Bike Shelter", "bike_capacity": 20, "size": 10.0, "installed": 2011.0 }, "geometry": { "type": "Point", "coordinates": [ -79.414329030520904, 43.683694628484801 ] } },
{ "type": "Feature", "properties": { "id": 29, "address": "40 Orchard View Blvd", "postal_code": "M4R 1B9", "municipality": "former Toronto", "city": "Toronto", "ward": "Eglinton-Lawrence (8)", "name": "Northern District Public Library", "parking_type": "Bike Rack", "bike_capacity": 8, "size": 2.9, "installed": 2016.0 }, "geometry": { "type": "Point", "coordinates": [ -79.400064048478896, 43.708269905051097 ] } },
{ "type": "Feature", "properties": { "id": 30, "address": "400 Yonge St", "postal_code": "None", "municipality": "former Toronto", "city": "Toronto", "ward": "University-Rosedale (11)", "name": "None", "parking_type": "Bike Rack", "bike_capacity": 8, "size": 2.9, "installed": 2016.0 }, "geometry": { "type": "Point", "coordinates": [ -79.382646822277096, 43.6595417581254 ] } },
{ "type": "Feature", "properties": { "id": 31, "address": "429 College St", "postal_code": "M5T 1T2", "municipality": "former Toronto", "city": "Toronto", "ward": "University-Rosedale (11)", "name": "None", "parking_type": "Bike Rack", "bike_capacity": 8, "size": 2.9, "installed": 2016.0 }, "geometry": { "type": "Point", "coordinates": [ -79.407284784126603, 43.656283233401702 ] } },
{ "type": "Feature", "properties": { "id": 32, "address": "449 Parliament St", "postal_code": "M5A 3A3", "municipality": "former Toronto", "city": "Toronto", "ward": "Toronto Centre (13)", "name": "None", "parking_type": "Bike Rack", "bike_capacity": 8, "size": 2.9, "installed": 2016.0 }, "geometry": { "type": "Point", "coordinates": [ -79.367162641498794, 43.663506584420297 ] } },
{ "type": "Feature", "properties": { "id": 33, "address": "47 Lower River St", "postal_code": "M5A 0G1", "municipality": "former Toronto", "city": "Toronto", "ward": "Toronto Centre (13)", "name": "None", "parking_type": "Bike Rack", "bike_capacity": 24, "size": 2.9, "installed": 2016.0 }, "geometry": { "type": "Point", "coordinates": [ -79.355541063169994, 43.656498596990907 ] } },
{ "type": "Feature", "properties": { "id": 34, "address": "49 Givins St", "postal_code": "M6J 2X5", "municipality": "former Toronto", "city": "Toronto", "ward": "Spadina-Fort York (10)", "name": "Givins/Shaw Public School", "parking_type": "Bike Rack", "bike_capacity": 8, "size": 2.9, "installed": 2013.0 }, "geometry": { "type": "Point", "coordinates": [ -79.417584292376603, 43.646407657347702 ] } },
{ "type": "Feature", "properties": { "id": 35, "address": "50 Portland St", "postal_code": "M5V 2M7", "municipality": "former Toronto", "city": "Toronto", "ward": "Spadina-Fort York (10)", "name": "None", "parking_type": "Bike Corral", "bike_capacity": 14, "size": 5.5, "installed": 2016.0 }, "geometry": { "type": "Point", "coordinates": [ -79.399965435668193, 43.6433952592458 ] } },
{ "type": "Feature", "properties": { "id": 36, "address": "511 King St W", "postal_code": "M5V 2Z4", "municipality": "former Toronto", "city": "Toronto", "ward": "Spadina-Fort York (10)", "name": "None", "parking_type": "Bike Rack", "bike_capacity": 8, "size": 2.9, "installed": 2016.0 }, "geometry": { "type": "Point", "coordinates": [ -79.397849417530097, 43.644623551329403 ] } },
{ "type": "Feature", "properties": { "id": 37, "address": "522 University Ave", "postal_code": "M5G 1W7", "municipality": "former Toronto", "city": "Toronto", "ward": "University-Rosedale (11)", "name": "None", "parking_type": "Bike Rack", "bike_capacity": 16, "size": 2.9, "installed": 2016.0 }, "geometry": { "type": "Point", "coordinates": [ -79.389380120360499, 43.655918435180901 ] } },
{ "type": "Feature", "properties": { "id": 38, "address": "539 Parliament St", "postal_code": "M4X 1P7", "municipality": "former Toronto", "city": "Toronto", "ward": "Toronto Centre (13)", "name": "None", "parking_type": "Bike Rack", "bike_capacity": 8, "size": 2.9, "installed": 2016.0 }, "geometry": { "type": "Point", "coordinates": [ -79.368472371395896, 43.6660407871926 ] } },
{ "type": "Feature", "properties": { "id": 39, "address": "61 Front St W", "postal_code": "M5J 1E5", "municipality": "former Toronto", "city": "Toronto", "ward": "Spadina-Fort York (10)", "name": "None", "parking_type": "Bike Rack", "bike_capacity": 72, "size": 2.9, "installed": 2015.0 }, "geometry": { "type": "Point", "coordinates": [ -79.380070053637098, 43.645245405688399 ] } },
{ "type": "Feature", "properties": { "id": 40, "address": "5 Bartonville Ave E", "postal_code": "M6M 2B1", "municipality": "York", "city": "Toronto", "ward": "York South-Weston (5)", "name": "None", "parking_type": "Bike Rack", "bike_capacity": 8, "size": 2.9, "installed": 2017.0 }, "geometry": { "type": "Point", "coordinates": [ -79.494582675060997, 43.689484593934601 ] } },
{ "type": "Feature", "properties": { "id": 41, "address": "621 King St W", "postal_code": "M5V 1M5", "municipality": "former Toronto", "city": "Toronto", "ward": "Spadina-Fort York (10)", "name": "None", "parking_type": "Bike Rack", "bike_capacity": 8, "size": 2.9, "installed": 2016.0 }, "geometry": { "type": "Point", "coordinates": [ -79.401149845982616, 43.644002882952201 ] } },
{ "type": "Feature", "properties": { "id": 42, "address": "636 Queen St E", "postal_code": "M4M 1G3", "municipality": "former Toronto", "city": "Toronto", "ward": "Toronto-Danforth (14)", "name": "None", "parking_type": "Bike Rack", "bike_capacity": 8, "size": 2.9, "installed": 2016.0 }, "geometry": { "type": "Point", "coordinates": [ -79.352595350183094, 43.658432232815599 ] } },
{ "type": "Feature", "properties": { "id": 43, "address": "675 Bloor St W", "postal_code": "M6G 1L3", "municipality": "former Toronto", "city": "Toronto", "ward": "University-Rosedale (11)", "name": "None", "parking_type": "Bike Rack", "bike_capacity": 56, "size": 2.9, "installed": 2016.0 }, "geometry": { "type": "Point", "coordinates": [ -79.416253854983495, 43.663806234493002 ] } },
{ "type": "Feature", "properties": { "id": 44, "address": "720 Bay St", "postal_code": "M5G 2K1", "municipality": "former Toronto", "city": "Toronto", "ward": "University-Rosedale (11)", "name": "None", "parking_type": "Bike Rack", "bike_capacity": 8, "size": 2.9, "installed": 2016.0 }, "geometry": { "type": "Point", "coordinates": [ -79.385484935496294, 43.658837112630202 ] } },
{ "type": "Feature", "properties": { "id": 45, "address": "736 Bay St", "postal_code": "M5G 2M4", "municipality": "former Toronto", "city": "Toronto", "ward": "University-Rosedale (11)", "name": "None", "parking_type": "Bike Rack", "bike_capacity": 8, "size": 2.9, "installed": 2016.0 }, "geometry": { "type": "Point", "coordinates": [ -79.385647049176697, 43.659343483647099 ] } },
{ "type": "Feature", "properties": { "id": 46, "address": "743 Pape Ave", "postal_code": "M4K 3T1", "municipality": "former Toronto", "city": "Toronto", "ward": "Toronto-Danforth (14)", "name": "None", "parking_type": "Bike Rack", "bike_capacity": 32, "size": 2.9, "installed": 2015.0 }, "geometry": { "type": "Point", "coordinates": [ -79.345012384771309, 43.679887323978797 ] } },
{ "type": "Feature", "properties": { "id": 47, "address": "798 Richmond St W", "postal_code": "M6J 3P3", "municipality": "former Toronto", "city": "Toronto", "ward": "Spadina-Fort York (10)", "name": "None", "parking_type": "Bike Rack", "bike_capacity": 16, "size": 2.9, "installed": 2016.0 }, "geometry": { "type": "Point", "coordinates": [ -79.409810857216499, 43.645129724494403 ] } },
{ "type": "Feature", "properties": { "id": 48, "address": "802 College St", "postal_code": "M6G 1C8", "municipality": "former Toronto", "city": "Toronto", "ward": "University-Rosedale (11)", "name": "None", "parking_type": "Bike Rack", "bike_capacity": 8, "size": 2.9, "installed": 2016.0 }, "geometry": { "type": "Point", "coordinates": [ -79.421709864682398, 43.65484431893961 ] } },
{ "type": "Feature", "properties": { "id": 49, "address": "813 Bloor St W", "postal_code": "M6G 1L8", "municipality": "former Toronto", "city": "Toronto", "ward": "University-Rosedale (11)", "name": "None", "parking_type": "Bike Rack", "bike_capacity": 8, "size": 2.9, "installed": 2014.0 }, "geometry": { "type": "Point", "coordinates": [ -79.421762945785403, 43.662553802601799 ] } },
{ "type": "Feature", "properties": { "id": 50, "address": "940 College St", "postal_code": "M6H 1A5", "municipality": "former Toronto", "city": "Toronto", "ward": "Davenport (9)", "name": "None", "parking_type": "Bike Rack", "bike_capacity": 8, "size": 2.9, "installed": 2016.0 }, "geometry": { "type": "Point", "coordinates": [ -79.426627706584298, 43.653742979965898 ] } },
{ "type": "Feature", "properties": { "id": 51, "address": "1034 Bloor St W", "postal_code": "M6H 1M3", "municipality": "former Toronto", "city": "Toronto", "ward": "Davenport (9)", "name": "None", "parking_type": "Angled Bike Rack", "bike_capacity": 5, "size": 2.9, "installed": 2016.0 }, "geometry": { "type": "Point", "coordinates": [ -79.431934225537205, 43.660884873421899 ] } },
{ "type": "Feature", "properties": { "id": 52, "address": "12 Emerson Ave", "postal_code": "M6H 3S8", "municipality": "former Toronto", "city": "Toronto", "ward": "Davenport (9)", "name": "None", "parking_type": "Bike Corral", "bike_capacity": 14, "size": 5.5, "installed": 2014.0 }, "geometry": { "type": "Point", "coordinates": [ -79.441313292191495, 43.659382977936104 ] } },
{ "type": "Feature", "properties": { "id": 53, "address": "82 Fort York Blvd", "postal_code": "M5V 4A6", "municipality": "former Toronto", "city": "Toronto", "ward": "Spadina-Fort York (10)", "name": "None", "parking_type": "Bike Rack", "bike_capacity": 8, "size": 2.9, "installed": 2016.0 }, "geometry": { "type": "Point", "coordinates": [ -79.396770830941193, 43.640021773497601 ] } },
{ "type": "Feature", "properties": { "id": 54, "address": "65 Dundas St W", "postal_code": "M5G 2C3", "municipality": "former Toronto", "city": "Toronto", "ward": "Toronto Centre (13)", "name": "Eaton Centre Retail Entr", "parking_type": "Bike Rack", "bike_capacity": 32, "size": 2.9, "installed": 2016.0 }, "geometry": { "type": "Point", "coordinates": [ -79.383007285169299, 43.6555937758623 ] } },
{ "type": "Feature", "properties": { "id": 55, "address": "860 College St", "postal_code": "M6H 1A2", "municipality": "former Toronto", "city": "Toronto", "ward": "Davenport (9)", "name": "None", "parking_type": "Bike Rack", "bike_capacity": 8, "size": 2.9, "installed": 2016.0 }, "geometry": { "type": "Point", "coordinates": [ -79.423853912841395, 43.6544574848038 ] } },
{ "type": "Feature", "properties": { "id": 56, "address": "901 King St W", "postal_code": "M5V 3H5", "municipality": "former Toronto", "city": "Toronto", "ward": "Spadina-Fort York (10)", "name": "None", "parking_type": "Bike Rack", "bike_capacity": 8, "size": 2.9, "installed": 2016.0 }, "geometry": { "type": "Point", "coordinates": [ -79.411246784004405, 43.6418724238127 ] } },
{ "type": "Feature", "properties": { "id": 57, "address": "92 Fort York Blvd", "postal_code": "M5V 4A7", "municipality": "former Toronto", "city": "Toronto", "ward": "Spadina-Fort York (10)", "name": "None", "parking_type": "Bike Rack", "bike_capacity": 8, "size": 2.9, "installed": 2016.0 }, "geometry": { "type": "Point", "coordinates": [ -79.396968169507105, 43.639981400321801 ] } },
{ "type": "Feature", "properties": { "id": 58, "address": "92 Sudbury St", "postal_code": "M6J 0C5", "municipality": "former Toronto", "city": "Toronto", "ward": "Davenport (9)", "name": "None", "parking_type": "Bike Corral", "bike_capacity": 14, "size": 5.5, "installed": 2017.0 }, "geometry": { "type": "Point", "coordinates": [ -79.423165637746706, 43.6413458972849 ] } },
{ "type": "Feature", "properties": { "id": 59, "address": "44 Lisgar St", "postal_code": "None", "municipality": "former Toronto", "city": "Toronto", "ward": "Davenport (9)", "name": "None", "parking_type": "Bike Rack", "bike_capacity": 8, "size": 2.9, "installed": 2016.0 }, "geometry": { "type": "Point", "coordinates": [ -79.423441185662796, 43.642086535228898 ] } },
{ "type": "Feature", "properties": { "id": 60, "address": "95 Front St E", "postal_code": "M5E 1C2", "municipality": "former Toronto", "city": "Toronto", "ward": "Toronto Centre (13)", "name": "None", "parking_type": "Bike Rack", "bike_capacity": 8, "size": 2.9, "installed": 2014.0 }, "geometry": { "type": "Point", "coordinates": [ -79.371493712778701, 43.6491812588323 ] } },
{ "type": "Feature", "properties": { "id": 61, "address": "95 River Grove Dr", "postal_code": "M1W 3T8", "municipality": "Scarborough", "city": "Toronto", "ward": "Scarborough-Agincourt (22)", "name": "None", "parking_type": "Bike Rack", "bike_capacity": 8, "size": 2.9, "installed": 2016.0 }, "geometry": { "type": "Point", "coordinates": [ -79.317389651038397, 43.8209470944401 ] } },
{ "type": "Feature", "properties": { "id": 62, "address": "953 Gerrard St E", "postal_code": "M4M 1Z4", "municipality": "former Toronto", "city": "Toronto", "ward": "Toronto-Danforth (14)", "name": "Matty Eckler Playground,Pape Avenue Playground", "parking_type": "Bike Rack", "bike_capacity": 16, "size": 2.9, "installed": 2016.0 }, "geometry": { "type": "Point", "coordinates": [ -79.339396983040402, 43.668053671130998 ] } },
{ "type": "Feature", "properties": { "id": 63, "address": "695 Lansdowne Ave", "postal_code": "M6H 3Y9", "municipality": "former Toronto", "city": "Toronto", "ward": "Davenport (9)", "name": "None", "parking_type": "Bike Rack", "bike_capacity": 8, "size": 2.9, "installed": 2014.0 }, "geometry": { "type": "Point", "coordinates": [ -79.442810429461503, 43.659129043620702 ] } },
{ "type": "Feature", "properties": { "id": 64, "address": "55 John St", "postal_code": "M5V 3C6", "municipality": "former Toronto", "city": "Toronto", "ward": "Spadina-Fort York (10)", "name": "Metro Hall", "parking_type": "Bike Rack", "bike_capacity": 16, "size": 2.9, "installed": 2015.0 }, "geometry": { "type": "Point", "coordinates": [ -79.388931492057196, 43.646153793510301 ] } },
{ "type": "Feature", "properties": { "id": 65, "address": "300 Victoria St", "postal_code": "None", "municipality": "former Toronto", "city": "Toronto", "ward": "Toronto Centre (13)", "name": "None", "parking_type": "Bike Rack", "bike_capacity": 32, "size": 2.9, "installed": 2016.0 }, "geometry": { "type": "Point", "coordinates": [ -79.380237673889795, 43.657512633153502 ] } },
{ "type": "Feature", "properties": { "id": 66, "address": "138 Fort York Blvd", "postal_code": "M5V 0E3", "municipality": "former Toronto", "city": "Toronto", "ward": "Spadina-Fort York (10)", "name": "None", "parking_type": "Bike Rack", "bike_capacity": 8, "size": 2.9, "installed": 2016.0 }, "geometry": { "type": "Point", "coordinates": [ -79.3987871031906, 43.639380761052102 ] } },
{ "type": "Feature", "properties": { "id": 67, "address": "1595 Dupont St", "postal_code": "M6P 3S8", "municipality": "former Toronto", "city": "Toronto", "ward": "Davenport (9)", "name": "None", "parking_type": "Bike Rack", "bike_capacity": 8, "size": 2.9, "installed": 2017.0 }, "geometry": { "type": "Point", "coordinates": [ -79.454219317989796, 43.664935889451208 ] } },
{ "type": "Feature", "properties": { "id": 68, "address": "2 Bloor St W", "postal_code": "M4W 3E2", "municipality": "former Toronto", "city": "Toronto", "ward": "University-Rosedale (11)", "name": "None", "parking_type": "Bike Rack", "bike_capacity": 32, "size": 2.9, "installed": 2016.0 }, "geometry": { "type": "Point", "coordinates": [ -79.387230047902904, 43.6704004360083 ] } },
{ "type": "Feature", "properties": { "id": 69, "address": "2000 Yonge St", "postal_code": "M4S 1Z7", "municipality": "former Toronto", "city": "Toronto", "ward": "Toronto-St. Paul's (12)", "name": "None", "parking_type": "Bike Rack", "bike_capacity": 8, "size": 2.9, "installed": 2016.0 }, "geometry": { "type": "Point", "coordinates": [ -79.397381544137602, 43.7004743321706 ] } },
{ "type": "Feature", "properties": { "id": 70, "address": "22 Fort York Blvd", "postal_code": "M5V 3Z2", "municipality": "former Toronto", "city": "Toronto", "ward": "Spadina-Fort York (10)", "name": "None", "parking_type": "Bike Rack", "bike_capacity": 8, "size": 2.9, "installed": 2017.0 }, "geometry": { "type": "Point", "coordinates": [ -79.394196399307006, 43.6405581341619 ] } },
{ "type": "Feature", "properties": { "id": 71, "address": "268 College St", "postal_code": "M5T 1S1", "municipality": "former Toronto", "city": "Toronto", "ward": "University-Rosedale (11)", "name": "None", "parking_type": "Bike Corral", "bike_capacity": 14, "size": 5.5, "installed": 2016.0 }, "geometry": { "type": "Point", "coordinates": [ -79.400514955364102, 43.658148724844501 ] } },
{ "type": "Feature", "properties": { "id": 72, "address": "3530 Sheppard Ave E", "postal_code": "M1T 3K7", "municipality": "Scarborough", "city": "Toronto", "ward": "Scarborough-Agincourt (22)", "name": "Holy Spirit Catholic School", "parking_type": "Bike Rack", "bike_capacity": 8, "size": 2.9, "installed": 2014.0 }, "geometry": { "type": "Point", "coordinates": [ -79.303096242085999, 43.781207753262699 ] } },
{ "type": "Feature", "properties": { "id": 73, "address": "441 King St W", "postal_code": "M5V 1K4", "municipality": "former Toronto", "city": "Toronto", "ward": "Spadina-Fort York (10)", "name": "None", "parking_type": "Bike Rack", "bike_capacity": 8, "size": 2.9, "installed": 2016.0 }, "geometry": { "type": "Point", "coordinates": [ -79.395671522857796, 43.645148839669602 ] } },
{ "type": "Feature", "properties": { "id": 74, "address": "490 Bloor St W", "postal_code": "M5S 1X8", "municipality": "former Toronto", "city": "Toronto", "ward": "University-Rosedale (11)", "name": "None", "parking_type": "Bike Rack", "bike_capacity": 8, "size": 2.9, "installed": 2016.0 }, "geometry": { "type": "Point", "coordinates": [ -79.409762206252793, 43.665628340967103 ] } },
{ "type": "Feature", "properties": { "id": 75, "address": "509 Bloor St W", "postal_code": "M5S 1Y2", "municipality": "former Toronto", "city": "Toronto", "ward": "University-Rosedale (11)", "name": "None", "parking_type": "Bike Rack", "bike_capacity": 8, "size": 2.9, "installed": 2017.0 }, "geometry": { "type": "Point", "coordinates": [ -79.408385996473399, 43.66546090160741 ] } },
{ "type": "Feature", "properties": { "id": 76, "address": "666 Queen St E", "postal_code": "M4M 1G8", "municipality": "former Toronto", "city": "Toronto", "ward": "Toronto-Danforth (14)", "name": "None", "parking_type": "Bike Rack", "bike_capacity": 8, "size": 2.9, "installed": 2016.0 }, "geometry": { "type": "Point", "coordinates": [ -79.351500514253104, 43.658698893924303 ] } },
{ "type": "Feature", "properties": { "id": 77, "address": "71 Second St", "postal_code": "M8V 2X4", "municipality": "Etobicoke", "city": "Toronto", "ward": "Etobicoke-Lakeshore (3)", "name": "Second Street Junior Middle School", "parking_type": "Bike Rack", "bike_capacity": 8, "size": 2.9, "installed": 2016.0 }, "geometry": { "type": "Point", "coordinates": [ -79.499766258173906, 43.6036684223915 ] } },
{ "type": "Feature", "properties": { "id": 78, "address": "1485 Dupont St", "postal_code": "M6P 3S2", "municipality": "former Toronto", "city": "Toronto", "ward": "Davenport (9)", "name": "None", "parking_type": "Bike Corral", "bike_capacity": 14, "size": 5.5, "installed": 2016.0 }, "geometry": { "type": "Point", "coordinates": [ -79.450190574764804, 43.665799332549199 ] } },
{ "type": "Feature", "properties": { "id": 79, "address": "200 King St E", "postal_code": "M5A 3W8", "municipality": "former Toronto", "city": "Toronto", "ward": "Toronto Centre (13)", "name": "None", "parking_type": "Bike Rack", "bike_capacity": 16, "size": 2.9, "installed": 2017.0 }, "geometry": { "type": "Point", "coordinates": [ -79.370185661894794, 43.651100464232997 ] } },
{ "type": "Feature", "properties": { "id": 80, "address": "200 King St E", "postal_code": "M5A 3W8", "municipality": "former Toronto", "city": "Toronto", "ward": "Toronto Centre (13)", "name": "None", "parking_type": "Bike Corral", "bike_capacity": 14, "size": 10.0, "installed": 2014.0 }, "geometry": { "type": "Point", "coordinates": [ -79.370185661894794, 43.651100464232997 ] } },
{ "type": "Feature", "properties": { "id": 81, "address": "315 Bloor St W", "postal_code": "M5S 1A3", "municipality": "former Toronto", "city": "Toronto", "ward": "University-Rosedale (11)", "name": "None", "parking_type": "Bike Rack", "bike_capacity": 8, "size": 2.9, "installed": 2016.0 }, "geometry": { "type": "Point", "coordinates": [ -79.398562450063494, 43.667446942430601 ] } },
{ "type": "Feature", "properties": { "id": 82, "address": "516 Glenlake Ave", "postal_code": "None", "municipality": "former Toronto", "city": "Toronto", "ward": "Parkdale-High Park (4)", "name": "Glenlake Square", "parking_type": "Bike Rack", "bike_capacity": 8, "size": 2.9, "installed": 2017.0 }, "geometry": { "type": "Point", "coordinates": [ -79.474104822036196, 43.656121246448897 ] } },
{ "type": "Feature", "properties": { "id": 83, "address": "693 Bloor St W", "postal_code": "M6G 1L5", "municipality": "former Toronto", "city": "Toronto", "ward": "University-Rosedale (11)", "name": "None", "parking_type": "Bike Rack", "bike_capacity": 8, "size": 2.9, "installed": 2016.0 }, "geometry": { "type": "Point", "coordinates": [ -79.417351198409705, 43.663540971540499 ] } },
{ "type": "Feature", "properties": { "id": 84, "address": "150 King St W", "postal_code": "M5H 1J9", "municipality": "former Toronto", "city": "Toronto", "ward": "Spadina-Fort York (10)", "name": "None", "parking_type": "Bike Rack", "bike_capacity": 8, "size": 2.9, "installed": 2017.0 }, "geometry": { "type": "Point", "coordinates": [ -79.384232274563203, 43.6482142784795 ] } },
{ "type": "Feature", "properties": { "id": 85, "address": "35D Bathurst St", "postal_code": "M5V 2P2", "municipality": "former Toronto", "city": "Toronto", "ward": "Spadina-Fort York (10)", "name": "None", "parking_type": "Bike Rack", "bike_capacity": 8, "size": 2.9, "installed": 2016.0 }, "geometry": { "type": "Point", "coordinates": [ -79.401724969128395, 43.642225715835004 ] } },
{ "type": "Feature", "properties": { "id": 86, "address": "71 New Forest Sq", "postal_code": "M1V 2Z6", "municipality": "Scarborough", "city": "Toronto", "ward": "Scarborough-Agincourt (22)", "name": "None", "parking_type": "Bike Rack", "bike_capacity": 8, "size": 2.9, "installed": 2016.0 }, "geometry": { "type": "Point", "coordinates": [ -79.307447390693397, 43.823033106133202 ] } },
{ "type": "Feature", "properties": { "id": 87, "address": "11 Charlotte St", "postal_code": "M5V 0M6", "municipality": "former Toronto", "city": "Toronto", "ward": "Spadina-Fort York (10)", "name": "None", "parking_type": "Bike Rack", "bike_capacity": 8, "size": 2.9, "installed": 2017.0 }, "geometry": { "type": "Point", "coordinates": [ -79.393669878477795, 43.646377842424698 ] } },
{ "type": "Feature", "properties": { "id": 88, "address": "1560 Yonge St", "postal_code": "M4T 2S9", "municipality": "former Toronto", "city": "Toronto", "ward": "Toronto-St. Paul's (12)", "name": "None", "parking_type": "Bike Rack", "bike_capacity": 8, "size": 2.9, "installed": 2016.0 }, "geometry": { "type": "Point", "coordinates": [ -79.395126901240104, 43.689678353000303 ] } },
{ "type": "Feature", "properties": { "id": 89, "address": "612 Bloor St W", "postal_code": "M6G 1K7", "municipality": "former Toronto", "city": "Toronto", "ward": "University-Rosedale (11)", "name": "None", "parking_type": "Bike Rack", "bike_capacity": 8, "size": 2.9, "installed": null }, "geometry": { "type": "Point", "coordinates": [ -79.413838815814202, 43.664734170004898 ] } },
{ "type": "Feature", "properties": { "id": 90, "address": "1032 Bloor St W", "postal_code": "M6H 1M2", "municipality": "former Toronto", "city": "Toronto", "ward": "Davenport (9)", "name": "None", "parking_type": "Bike Rack", "bike_capacity": 8, "size": 2.9, "installed": 2015.0 }, "geometry": { "type": "Point", "coordinates": [ -79.431606259843505, 43.6609569224605 ] } },
{ "type": "Feature", "properties": { "id": 91, "address": "157 Dan Leckie Way", "postal_code": "M5V 4A8", "municipality": "former Toronto", "city": "Toronto", "ward": "Spadina-Fort York (10)", "name": "None", "parking_type": "Bike Rack", "bike_capacity": 8, "size": 2.9, "installed": 2016.0 }, "geometry": { "type": "Point", "coordinates": [ -79.398005532727396, 43.639893117921503 ] } },
{ "type": "Feature", "properties": { "id": 92, "address": "595 Bay St", "postal_code": "M5G 2C2", "municipality": "former Toronto", "city": "Toronto", "ward": "University-Rosedale (11)", "name": "None", "parking_type": "Bike Rack", "bike_capacity": 8, "size": 2.9, "installed": 2016.0 }, "geometry": { "type": "Point", "coordinates": [ -79.383297827868205, 43.656212447700199 ] } },
{ "type": "Feature", "properties": { "id": 93, "address": "5 Salem Ave", "postal_code": "M6H 3C2", "municipality": "former Toronto", "city": "Toronto", "ward": "Davenport (9)", "name": "None", "parking_type": "Bike Rack", "bike_capacity": 8, "size": 2.9, "installed": 2014.0 }, "geometry": { "type": "Point", "coordinates": [ -79.431560102394499, 43.660845125142103 ] } },
{ "type": "Feature", "properties": { "id": 94, "address": "1036 Bloor St W", "postal_code": "M6H 1M3", "municipality": "former Toronto", "city": "Toronto", "ward": "Davenport (9)", "name": "None", "parking_type": "Bike Rack", "bike_capacity": 8, "size": 2.9, "installed": 2014.0 }, "geometry": { "type": "Point", "coordinates": [ -79.431938364110195, 43.660821317392902 ] } },
{ "type": "Feature", "properties": { "id": 95, "address": "1 Albany Ave", "postal_code": "M5R 3C2", "municipality": "former Toronto", "city": "Toronto", "ward": "University-Rosedale (11)", "name": "None", "parking_type": "Bike Rack", "bike_capacity": 8, "size": 2.9, "installed": 2017.0 }, "geometry": { "type": "Point", "coordinates": [ -79.409938590868293, 43.6657201946865 ] } },
{ "type": "Feature", "properties": { "id": 96, "address": "163 Dan Leckie Way", "postal_code": "M5V 4A8", "municipality": "former Toronto", "city": "Toronto", "ward": "Spadina-Fort York (10)", "name": "None", "parking_type": "Bike Rack", "bike_capacity": 8, "size": 2.9, "installed": 2016.0 }, "geometry": { "type": "Point", "coordinates": [ -79.398068608150794, 43.640054199814699 ] } },
{ "type": "Feature", "properties": { "id": 97, "address": "26 Dundas St E", "postal_code": "M5B 2L6", "municipality": "former Toronto", "city": "Toronto", "ward": "Toronto Centre (13)", "name": "None", "parking_type": "Bike Rack", "bike_capacity": 8, "size": 2.9, "installed": 2017.0 }, "geometry": { "type": "Point", "coordinates": [ -79.379977524603106, 43.656517576129303 ] } },
{ "type": "Feature", "properties": { "id": 98, "address": "38 Orchard View Blvd", "postal_code": "M4R 2G3", "municipality": "former Toronto", "city": "Toronto", "ward": "Eglinton-Lawrence (8)", "name": "None", "parking_type": "Bike Rack", "bike_capacity": 8, "size": 2.9, "installed": 2016.0 }, "geometry": { "type": "Point", "coordinates": [ -79.399680144573409, 43.708216713311003 ] } },
{ "type": "Feature", "properties": { "id": 99, "address": "200 King St W", "postal_code": "M5H 3T4", "municipality": "former Toronto", "city": "Toronto", "ward": "Spadina-Fort York (10)", "name": "None", "parking_type": "Bike Rack", "bike_capacity": 8, "size": 2.9, "installed": 2016.0 }, "geometry": { "type": "Point", "coordinates": [ -79.385720417604801, 43.647905273783699 ] } },
{ "type": "Feature", "properties": { "id": 100, "address": "1030 King St W", "postal_code": "M6K 0B4", "municipality": "former Toronto", "city": "Toronto", "ward": "Spadina-Fort York (10)", "name": "None", "parking_type": "Bike Rack", "bike_capacity": 16, "size": 2.9, "installed": 2016.0 }, "geometry": { "type": "Point", "coordinates": [ -79.415758675468098, 43.641580853667399 ] } },
{ "type": "Feature", "properties": { "id": 101, "address": "1 St Clair Ave E", "postal_code": "M4T 2V7", "municipality": "former Toronto", "city": "Toronto", "ward": "Toronto-St. Paul's (12)", "name": "None", "parking_type": "Bike Rack", "bike_capacity": 24, "size": 2.9, "installed": 2016.0 }, "geometry": { "type": "Point", "coordinates": [ -79.393570874408695, 43.687911156836599 ] } },
{ "type": "Feature", "properties": { "id": 102, "address": "10 Linnsmore Cres", "postal_code": "M4J 4J6", "municipality": "former Toronto", "city": "Toronto", "ward": "Toronto-Danforth (14)", "name": "None", "parking_type": "Bike Rack", "bike_capacity": 18, "size": 2.9, "installed": 2016.0 }, "geometry": { "type": "Point", "coordinates": [ -79.330292170891994, 43.682572031707601 ] } },
{ "type": "Feature", "properties": { "id": 103, "address": "101 Sherbourne St", "postal_code": "M5A 2R3", "municipality": "former Toronto", "city": "Toronto", "ward": "Toronto Centre (13)", "name": "None", "parking_type": "Bike Rack", "bike_capacity": 8, "size": 2.9, "installed": 2016.0 }, "geometry": { "type": "Point", "coordinates": [ -79.368911697316406, 43.653662155849197 ] } },
{ "type": "Feature", "properties": { "id": 104, "address": "1184 Queen St W", "postal_code": "M6J 1J5", "municipality": "former Toronto", "city": "Toronto", "ward": "Davenport (9)", "name": "None", "parking_type": "Bike Corral", "bike_capacity": 14, "size": 5.5, "installed": 2013.0 }, "geometry": { "type": "Point", "coordinates": [ -79.425784696809203, 43.643028499150098 ] } },
{ "type": "Feature", "properties": { "id": 105, "address": "1190 Dundas St E", "postal_code": "M4M 0C5", "municipality": "former Toronto", "city": "Toronto", "ward": "Toronto-Danforth (14)", "name": "None", "parking_type": "Bike Rack", "bike_capacity": 8, "size": 2.9, "installed": 2016.0 }, "geometry": { "type": "Point", "coordinates": [ -79.341033645592702, 43.665267525631201 ] } },
{ "type": "Feature", "properties": { "id": 106, "address": "12 Madison Ave", "postal_code": "M5R 2S1", "municipality": "former Toronto", "city": "Toronto", "ward": "University-Rosedale (11)", "name": "None", "parking_type": "Bike Rack", "bike_capacity": 8, "size": 2.9, "installed": 2016.0 }, "geometry": { "type": "Point", "coordinates": [ -79.403321340276406, 43.667759199922699 ] } },
{ "type": "Feature", "properties": { "id": 107, "address": "12 Ossington Ave", "postal_code": "M6J 2Y7", "municipality": "former Toronto", "city": "Toronto", "ward": "Spadina-Fort York (10)", "name": "None", "parking_type": "Angled Bike Rack", "bike_capacity": 5, "size": 2.9, "installed": 2016.0 }, "geometry": { "type": "Point", "coordinates": [ -79.419378168205398, 43.644459330114103 ] } },
{ "type": "Feature", "properties": { "id": 108, "address": "122 Bond St", "postal_code": "M5B 1X8", "municipality": "former Toronto", "city": "Toronto", "ward": "Toronto Centre (13)", "name": "None", "parking_type": "Bike Rack", "bike_capacity": 16, "size": 2.9, "installed": 2016.0 }, "geometry": { "type": "Point", "coordinates": [ -79.379138785181595, 43.657378121621697 ] } },
{ "type": "Feature", "properties": { "id": 109, "address": "137 Bond St", "postal_code": "M5B 1Y2", "municipality": "former Toronto", "city": "Toronto", "ward": "Toronto Centre (13)", "name": "None", "parking_type": "Bike Rack", "bike_capacity": 8, "size": 2.9, "installed": 2016.0 }, "geometry": { "type": "Point", "coordinates": [ -79.378718168847499, 43.657822711833397 ] } },
{ "type": "Feature", "properties": { "id": 110, "address": "124 Spadina Ave", "postal_code": "None", "municipality": "former Toronto", "city": "Toronto", "ward": "Spadina-Fort York (10)", "name": "None", "parking_type": "Bike Corral", "bike_capacity": 28, "size": 12.0, "installed": 2015.0 }, "geometry": { "type": "Point", "coordinates": [ -79.396338544091194, 43.647183908489502 ] } },
{ "type": "Feature", "properties": { "id": 111, "address": "192 Spadina Ave", "postal_code": "M5T 2C2", "municipality": "former Toronto", "city": "Toronto", "ward": "Spadina-Fort York (10)", "name": "None", "parking_type": "Bike Corral", "bike_capacity": 14, "size": 5.5, "installed": 2015.0 }, "geometry": { "type": "Point", "coordinates": [ -79.397648898416193, 43.649937895188799 ] } },
{ "type": "Feature", "properties": { "id": 112, "address": "196 Spadina Ave", "postal_code": "M5T 2C2", "municipality": "former Toronto", "city": "Toronto", "ward": "Spadina-Fort York (10)", "name": "None", "parking_type": "Bike Rack", "bike_capacity": 8, "size": 2.9, "installed": 2016.0 }, "geometry": { "type": "Point", "coordinates": [ -79.397370652001797, 43.650124549988398 ] } },
{ "type": "Feature", "properties": { "id": 113, "address": "1978 Queen St E", "postal_code": "M4L 1H8", "municipality": "former Toronto", "city": "Toronto", "ward": "Beaches-East York (19)", "name": "None", "parking_type": "Bike Rack", "bike_capacity": 8, "size": 2.9, "installed": 2017.0 }, "geometry": { "type": "Point", "coordinates": [ -79.301136315495597, 43.669972861010407 ] } },
{ "type": "Feature", "properties": { "id": 114, "address": "20 Northcote Ave", "postal_code": "None", "municipality": "former Toronto", "city": "Toronto", "ward": "Davenport (9)", "name": "None", "parking_type": "Bike Shelter", "bike_capacity": 10, "size": 3.0, "installed": 2015.0 }, "geometry": { "type": "Point", "coordinates": [ -79.426434747687296, 43.643125558055097 ] } },
{ "type": "Feature", "properties": { "id": 115, "address": "205 Spadina Ave", "postal_code": "M5T 2C7", "municipality": "former Toronto", "city": "Toronto", "ward": "Spadina-Fort York (10)", "name": "None", "parking_type": "Bike Corral", "bike_capacity": 14, "size": 11.0, "installed": 2010.0 }, "geometry": { "type": "Point", "coordinates": [ -79.396619032193399, 43.650425436321299 ] } },
{ "type": "Feature", "properties": { "id": 116, "address": "777 Victoria Park Ave", "postal_code": "None", "municipality": "Scarborough", "city": "Toronto", "ward": "Scarborough Southwest (20)", "name": "None", "parking_type": "Bike Rack", "bike_capacity": 8, "size": 2.9, "installed": null }, "geometry": { "type": "Point", "coordinates": [ -79.289157051180695, 43.694543570042697 ] } },
{ "type": "Feature", "properties": { "id": 117, "address": "78 Tecumseth St", "postal_code": "M5V 0A9", "municipality": "former Toronto", "city": "Toronto", "ward": "Spadina-Fort York (10)", "name": "None", "parking_type": "Bike Rack", "bike_capacity": 8, "size": 2.9, "installed": 2016.0 }, "geometry": { "type": "Point", "coordinates": [ -79.405441422186414, 43.643048047306301 ] } }
]
}
