{"type":"FeatureCollection","features":[{"type":"Feature","id":1,"geometry":{"type":"Point","coordinates":[-79.393187952999938,43.646093508000035]},"properties":{"OBJECTID":1,"id":1,"address_number":"400","address_street":"King St W","address":"400 King St W","postal_code":"M5V 1K2","municipality":"former Toronto","city":"Toronto","ward":"Spadina-Fort York (10)","name":"Mountain Equipment Co-op","unit":"None","phone":"416-340-2667","email":"None","rental":"NO"}},{"type":"Feature","id":2,"geometry":{"type":"Point","coordinates":[-79.424762171999987,43.654148053000029]},"properties":{"OBJECTID":2,"id":2,"address_number":"882","address_street":"College St","address":"882 College St","postal_code":"M6H 1A3","municipality":"former Toronto","city":"Toronto","ward":"Davenport (9)","name":"My Little Bike Shop","unit":"None","phone":"647-967-0122","email":"onetimetwotime@hotmail.com","rental":"NO"}},{"type":"Feature","id":3,"geometry":{"type":"Point","coordinates":[-79.539690022999935,43.592821454000045]},"properties":{"OBJECTID":3,"id":3,"address_number":"3731","address_street":"Lake Shore Blvd W","address":"3731 Lake Shore Blvd W","postal_code":"M8W 1P9","municipality":"Etobicoke","city":"Toronto","ward":"Etobicoke-Lakeshore (3)","name":"Oxygen Bike Co.","unit":"None","phone":"416-259-2453","email":"ride@oxygenbikes.com ","rental":"NO"}},{"type":"Feature","id":4,"geometry":{"type":"Point","coordinates":[-79.328555342999948,43.663905088000035]},"properties":{"OBJECTID":4,"id":4,"address_number":"1292","address_street":"Queen St E","address":"1292 Queen St E","postal_code":"M4L 1C4","municipality":"former Toronto","city":"Toronto","ward":"Toronto-Danforth (14)","name":"Polly's Recycle","unit":"None","phone":"416-461-4312","email":"zombie@cycleszombie.com","rental":"NO"}},{"type":"Feature","id":5,"geometry":{"type":"Point","coordinates":[-79.507799629999965,43.718968550000056]},"properties":{"OBJECTID":5,"id":5,"address_number":"2111","address_street":"Jane St","address":"2111 Jane St","postal_code":"M3M 1A2","municipality":"North York","city":"Toronto","ward":"York Centre (6)","name":"Al's Star Cycle & Sports ","unit":"None","phone":"416-249-0676","email":"None","rental":"NO"}},{"type":"Feature","id":6,"geometry":{"type":"Point","coordinates":[-79.412631613999963,43.66795615500007]},"properties":{"OBJECTID":6,"id":6,"address_number":"29","address_street":"Barton Ave","address":"29 Barton Ave","postal_code":"M6G 1P2","municipality":"former Toronto","city":"Toronto","ward":"University-Rosedale (11)","name":"Bateman's Bicycle Company","unit":"None","phone":"416-528-2453","email":"info@batemanbikeco.com","rental":"YES"}},{"type":"Feature","id":7,"geometry":{"type":"Point","coordinates":[-79.412496877999956,43.669302390000041]},"properties":{"OBJECTID":7,"id":7,"address_number":"913","address_street":"Bathurst St","address":"913 Bathurst St","postal_code":"M5R 3G4","municipality":"former Toronto","city":"Toronto","ward":"University-Rosedale (11)","name":"Bateman's Bicycle Company","unit":"None","phone":"416-538-2453","email":"info@batemanbikeco.com","rental":"YES"}},{"type":"Feature","id":8,"geometry":{"type":"Point","coordinates":[-79.306101146999936,43.668836565000049]},"properties":{"OBJECTID":8,"id":8,"address_number":"1882","address_street":"Queen St E","address":"1882 Queen St E","postal_code":"M4L 1H2","municipality":"former Toronto","city":"Toronto","ward":"Beaches-East York (19)","name":"Beach Toyz","unit":"None","phone":"416-464-8920","email":"john@beachtoyz.ca ","rental":"YES"}},{"type":"Feature","id":9,"geometry":{"type":"Point","coordinates":[-79.559640188999936,43.734355793000077]},"properties":{"OBJECTID":9,"id":9,"address_number":"835","address_street":"Albion Rd","address":"835 Albion Rd","postal_code":"M9V 1A3","municipality":"Etobicoke","city":"Toronto","ward":"Etobicoke North (1)","name":"Bicycle Depot ","unit":"None","phone":"416-741-1452","email":"bicycledepot@hotmail.com ","rental":"NO"}},{"type":"Feature","id":10,"geometry":{"type":"Point","coordinates":[-79.400061672999982,43.660417524000025]},"properties":{"OBJECTID":10,"id":10,"address_number":"563","address_street":"Spadina Cres","address":"563 Spadina Cres","postal_code":"M5S 2J7","municipality":"former Toronto","city":"Toronto","ward":"University-Rosedale (11)","name":"Bike Chain U of T ","unit":"None","phone":"416-978-6849","email":"bikechain@utoronto.ca  bikechainuoft@gmail.com ","rental":"NO"}},{"type":"Feature","id":11,"geometry":{"type":"Point","coordinates":[-79.442104675999985,43.658641013000079]},"properties":{"OBJECTID":11,"id":11,"address_number":"1292","address_street":"Bloor St W","address":"1292 Bloor St W","postal_code":"M6H 1N9","municipality":"former Toronto","city":"Toronto","ward":"Davenport (9)","name":"Bike Pirates ","unit":"None","phone":"416-555-5555","email":"info@bikepirates.com  volunteer@bikepirates.com ","rental":"NO"}},{"type":"Feature","id":12,"geometry":{"type":"Point","coordinates":[-79.472989592999966,43.665753210000048]},"properties":{"OBJECTID":12,"id":12,"address_number":"3096","address_street":"Dundas St W","address":"3096 Dundas St W","postal_code":"M6P 1Z8","municipality":"former Toronto","city":"Toronto","ward":"Parkdale-High Park (4)","name":"Bike Place","unit":"None","phone":"416-766-1085","email":"bikeplace@yahoo.ca ","rental":"NO"}},{"type":"Feature","id":13,"geometry":{"type":"Point","coordinates":[-79.350946073999978,43.662343609000061]},"properties":{"OBJECTID":13,"id":13,"address_number":"235","address_street":"Broadview Ave","address":"235 Broadview Ave","postal_code":"M4M 2G3","municipality":"former Toronto","city":"Toronto","ward":"Toronto-Danforth (14)","name":"Bike Sauce ","unit":"None","phone":"647-724-7880","email":"info@bikesauce  volunteer@bikesauce.org donate@bikesauce.org","rental":"NO"}},{"type":"Feature","id":14,"geometry":{"type":"Point","coordinates":[-79.397243307999986,43.699798041000065]},"properties":{"OBJECTID":14,"id":14,"address_number":"1970","address_street":"Yonge St","address":"1970 Yonge St","postal_code":"M4S 1Z7","municipality":"former Toronto","city":"Toronto","ward":"Toronto-St. Paul's (12)","name":"Biketoons ","unit":"None","phone":"416-587-7204","email":"biketoons@gmail.com","rental":"NO"}},{"type":"Feature","id":15,"geometry":{"type":"Point","coordinates":[-79.402494755999953,43.656760388000066]},"properties":{"OBJECTID":15,"id":15,"address_number":"309","address_street":"Augusta Ave","address":"309 Augusta Ave","postal_code":"M5T 2M2","municipality":"former Toronto","city":"Toronto","ward":"University-Rosedale (11)","name":"Bike On Wheels","unit":"None","phone":"416-966-2453","email":"queenstreet@bikesonwheels.ca","rental":"NO"}},{"type":"Feature","id":16,"geometry":{"type":"Point","coordinates":[-79.342277606999971,43.665728623000064]},"properties":{"OBJECTID":16,"id":16,"address_number":"388","address_street":"Carlaw Ave","address":"388 Carlaw Ave","postal_code":"M4M 2T4","municipality":"former Toronto","city":"Toronto","ward":"Toronto-Danforth (14)","name":"Biseagal","unit":"102-E","phone":"416-466-2212","email":"biseagal.info@gmail.com ","rental":"NO"}},{"type":"Feature","id":17,"geometry":{"type":"Point","coordinates":[-79.444072616999961,43.649459242000034]},"properties":{"OBJECTID":17,"id":17,"address_number":"345","address_street":"Sorauren Ave","address":"345 Sorauren Ave","postal_code":"M6R 2G5","municipality":"former Toronto","city":"Toronto","ward":"Parkdale-High Park (4)","name":"Blacksmith Cycles","unit":"Buzzer #4, 2nd Floor","phone":"416-853-9852  ","email":"info@blacksmithcycle.com","rental":"NO"}},{"type":"Feature","id":18,"geometry":{"type":"Point","coordinates":[-79.343568885999957,43.678940040000043]},"properties":{"OBJECTID":18,"id":18,"address_number":"701","address_street":"Danforth Ave","address":"701 Danforth Ave","postal_code":"M4J 1L2","municipality":"former Toronto","city":"Toronto","ward":"Toronto-Danforth (14)","name":"Broom Wagon Cyclery","unit":"None","phone":"647-352-6200","email":"broomwagoncyclery@gmail.com ","rental":"NO"}},{"type":"Feature","id":19,"geometry":{"type":"Point","coordinates":[-79.484351606999951,43.649061111000037]},"properties":{"OBJECTID":19,"id":19,"address_number":"2447","address_street":"Bloor St W","address":"2447 Bloor St W","postal_code":"M6S 1P7","municipality":"former Toronto","city":"Toronto","ward":"Parkdale-High Park (4)","name":"Brown's Sport & Cycle","unit":"None","phone":"416-763-4176","email":"info@brownssports.com ","rental":"NO"}},{"type":"Feature","id":20,"geometry":{"type":"Point","coordinates":[-79.353987518999986,43.632051082000032]},"properties":{"OBJECTID":20,"id":20,"address_number":"2","address_street":"Third St","address":"2 Third St","postal_code":"M5J 2A9","municipality":"former Toronto","city":"Toronto","ward":"Spadina-Fort York (10)","name":"Cappel's Custom Carts","unit":"None","phone":"416-804-0571","email":"mandrasca@gmail.com or butze@rogers.com ","rental":"NO"}},{"type":"Feature","id":21,"geometry":{"type":"Point","coordinates":[-79.403664622999941,43.662999916000047]},"properties":{"OBJECTID":21,"id":21,"address_number":"106","address_street":"Harbord St","address":"106 Harbord St","postal_code":"M5S 1G6","municipality":"former Toronto","city":"Toronto","ward":"University-Rosedale (11)","name":"Chilango Cycles","unit":"None","phone":"416-871-0863","email":"chilangocycles@gmail.com ","rental":"NO"}},{"type":"Feature","id":22,"geometry":{"type":"Point","coordinates":[-79.346780415999945,43.666848221000066]},"properties":{"OBJECTID":22,"id":22,"address_number":"1","address_street":"Howland Rd","address":"1 Howland Rd","postal_code":"M4K 2Z4","municipality":"former Toronto","city":"Toronto","ward":"Toronto-Danforth (14)","name":"Cogs Cycle","unit":"None","phone":"416-465-7677","email":"cogscycle@bellnet.ca","rental":"NO"}},{"type":"Feature","id":23,"geometry":{"type":"Point","coordinates":[-79.407643748999988,43.646267936000072]},"properties":{"OBJECTID":23,"id":23,"address_number":"761","address_street":"Queen St W","address":"761 Queen St W","postal_code":"M6J 1G1","municipality":"former Toronto","city":"Toronto","ward":"Spadina-Fort York (10)","name":"Community Bicycle Network","unit":"101","phone":"416-504-2918 ","email":"info@communitybicyclenetwork.org","rental":"NO"}},{"type":"Feature","id":24,"geometry":{"type":"Point","coordinates":[-79.498529608999945,43.602037848000066]},"properties":{"OBJECTID":24,"id":24,"address_number":"2749","address_street":"Lake Shore Blvd W","address":"2749 Lake Shore Blvd W","postal_code":"M8V 1H2","municipality":"Etobicoke","city":"Toronto","ward":"Etobicoke-Lakeshore (3)","name":"Cycle Butik","unit":"None","phone":"647-258-0012","email":"sales@cyclebutik.com ","rental":"NO"}},{"type":"Feature","id":25,"geometry":{"type":"Point","coordinates":[-79.425819295999986,43.653953801000057]},"properties":{"OBJECTID":25,"id":25,"address_number":"926","address_street":"College St","address":"926 College St","postal_code":"M6H 1A4","municipality":"former Toronto","city":"Toronto","ward":"Davenport (9)","name":"Cycle Couture","unit":"None","phone":"647-342-1037","email":"info@cyclecouture.ca","rental":"NO"}},{"type":"Feature","id":26,"geometry":{"type":"Point","coordinates":[-79.354443640999989,43.67685820500003]},"properties":{"OBJECTID":26,"id":26,"address_number":"281","address_street":"Danforth Ave","address":"281 Danforth Ave","postal_code":"M4K 1N2","municipality":"former Toronto","city":"Toronto","ward":"Toronto-Danforth (14)","name":"Cyclemania","unit":"None","phone":"416-466-0330","email":"lubomirhoferica@gmail.com","rental":"NO"}},{"type":"Feature","id":27,"geometry":{"type":"Point","coordinates":[-79.424581342999943,43.661965191000036]},"properties":{"OBJECTID":27,"id":27,"address_number":"863","address_street":"Bloor St W","address":"863 Bloor St W","postal_code":"M6G 1M4","municipality":"former Toronto","city":"Toronto","ward":"University-Rosedale (11)","name":"Cyclemania","unit":"None","phone":"416-533-0080","email":"lubomirhoferica@gmail.com","rental":"NO"}},{"type":"Feature","id":28,"geometry":{"type":"Point","coordinates":[-79.325184007999951,43.683196658000043]},"properties":{"OBJECTID":28,"id":28,"address_number":"1510","address_street":"Danforth Ave","address":"1510 Danforth Ave","postal_code":"M4J 1N4","municipality":"former Toronto","city":"Toronto","ward":"Toronto-Danforth (14)","name":"Cyclepath","unit":"None","phone":"416-463-5346","email":"support@cyclepath.ca","rental":"YES"}},{"type":"Feature","id":29,"geometry":{"type":"Point","coordinates":[-79.396930829999974,43.654398170000036]},"properties":{"OBJECTID":29,"id":29,"address_number":"120","address_street":"D'Arcy St","address":"120 D'Arcy St","postal_code":"M5T 1K3","municipality":"former Toronto","city":"Toronto","ward":"University-Rosedale (11)","name":"Cyclopedia","unit":"None","phone":"416-268-5667","email":"Cyclopedia@acanac.net ","rental":"NO"}},{"type":"Feature","id":30,"geometry":{"type":"Point","coordinates":[-79.368009235999978,43.663314891000027]},"properties":{"OBJECTID":30,"id":30,"address_number":"444","address_street":"Parliament St","address":"444 Parliament St","postal_code":"M5A 3A2","municipality":"former Toronto","city":"Toronto","ward":"Toronto Centre (13)","name":"Cycle Solutions","unit":"None","phone":"416-972-6948","email":"downtown@cycle-solutions.com ","rental":"NO"}},{"type":"Feature","id":31,"geometry":{"type":"Point","coordinates":[-79.298451812999986,43.678517803000034]},"properties":{"OBJECTID":31,"id":31,"address_number":"615","address_street":"Kingston Rd","address":"615 Kingston Rd","postal_code":"M4E 1R3","municipality":"former Toronto","city":"Toronto","ward":"Beaches-East York (19)","name":"Cycle Solutions","unit":"None","phone":"416-691-0019","email":"beaches@cycle-solutions.com ","rental":"NO"}},{"type":"Feature","id":32,"geometry":{"type":"Point","coordinates":[-79.568023361999963,43.644643606000045]},"properties":{"OBJECTID":32,"id":32,"address_number":"555","address_street":"Burnhamthorpe Rd","address":"555 Burnhamthorpe Rd","postal_code":"M9C 2Y3","municipality":"Etobicoke","city":"Toronto","ward":"Etobicoke Centre (2)","name":"Daial Cycle and Sports","unit":"107","phone":"416-620-6900","email":"None","rental":"NO"}},{"type":"Feature","id":33,"geometry":{"type":"Point","coordinates":[-79.421382353999945,43.670584065000071]},"properties":{"OBJECTID":33,"id":33,"address_number":"254","address_street":"Christie St","address":"254 Christie St","postal_code":"M6G 3B8","municipality":"former Toronto","city":"Toronto","ward":"University-Rosedale (11)","name":"Dave Fix My Bike","unit":"None","phone":"416-944-2453","email":"davidlavin777@gmail.com","rental":"NO"}},{"type":"Feature","id":34,"geometry":{"type":"Point","coordinates":[-79.301374266999971,43.744358601000044]},"properties":{"OBJECTID":34,"id":34,"address_number":"1894","address_street":"Lawrence Ave E","address":"1894 Lawrence Ave E","postal_code":"M1R 2Y5","municipality":"Scarborough","city":"Toronto","ward":"Scarborough Centre (21)","name":"D'Ornellas Bike Shop","unit":"None","phone":"416-752-3838","email":"info@dornellas.com","rental":"NO"}},{"type":"Feature","id":35,"geometry":{"type":"Point","coordinates":[-79.402921674999959,43.64724078900008]},"properties":{"OBJECTID":35,"id":35,"address_number":"625","address_street":"Queen St W","address":"625 Queen St W","postal_code":"M5V 2B7","municipality":"former Toronto","city":"Toronto","ward":"Spadina-Fort York (10)","name":"Duke's Cycle","unit":"None","phone":"416-504-6138","email":"info@dukescycle.ca ","rental":"NO"}},{"type":"Feature","id":36,"geometry":{"type":"Point","coordinates":[-79.541815543999974,43.640708536000034]},"properties":{"OBJECTID":36,"id":36,"address_number":"3876","address_street":"Bloor St W","address":"3876 Bloor St W","postal_code":"M9B 1L3","municipality":"Etobicoke","city":"Toronto","ward":"Etobicoke Centre (2)","name":"Duke's Sports","unit":"None","phone":"416-233-2011","email":"Dukes@SourceForSports.ca ","rental":"NO"}},{"type":"Feature","id":37,"geometry":{"type":"Point","coordinates":[-79.479692626999963,43.659912466000037]},"properties":{"OBJECTID":37,"id":37,"address_number":"521","address_street":"Annette St","address":"521 Annette St","postal_code":"M6P 1S1","municipality":"former Toronto","city":"Toronto","ward":"Parkdale-High Park (4)","name":"Espresso Cycles ","unit":"None","phone":"647-344-2669","email":"victor@expressocycles.ca ","rental":"NO"}},{"type":"Feature","id":38,"geometry":{"type":"Point","coordinates":[-79.374363909999943,43.647922953000034]},"properties":{"OBJECTID":38,"id":38,"address_number":"47","address_street":"Front St E","address":"47 Front St E","postal_code":"M5E 1B3","municipality":"former Toronto","city":"Toronto","ward":"Toronto Centre (13)","name":"Europe Bound","unit":"None","phone":"416-601-1990","email":"europeboundsales@gmail.com","rental":"NO"}},{"type":"Feature","id":39,"geometry":{"type":"Point","coordinates":[-79.328354429999933,43.682604406000053]},"properties":{"OBJECTID":39,"id":39,"address_number":"1374","address_street":"Danforth Ave","address":"1374 Danforth Ave","postal_code":"M4J 1M9","municipality":"former Toronto","city":"Toronto","ward":"Toronto-Danforth (14)","name":"Ezriders (Electric Bicycles)","unit":"None","phone":"416 461 8989 ","email":"greg@eziders.ca","rental":"NO"}},{"type":"Feature","id":40,"geometry":{"type":"Point","coordinates":[-79.416706663999946,43.664120892000028]},"properties":{"OBJECTID":40,"id":40,"address_number":"678","address_street":"Bloor St W","address":"678 Bloor St W","postal_code":"M6G 1L2","municipality":"former Toronto","city":"Toronto","ward":"University-Rosedale (11)","name":"Gallant Bicycles ","unit":"None","phone":"416-572-2593","email":"tony@gallantbicycles.com ","rental":"NO"}},{"type":"Feature","id":41,"geometry":{"type":"Point","coordinates":[-79.431485572999975,43.652624183000057]},"properties":{"OBJECTID":41,"id":41,"address_number":"1073","address_street":"College St","address":"1073 College St","postal_code":"M6H 1B2","municipality":"former Toronto","city":"Toronto","ward":"Davenport (9)","name":"Hoopdriver Bicycles ","unit":"None","phone":"647-344-9120","email":"info@hoopdriver.ca","rental":"NO"}},{"type":"Feature","id":42,"geometry":{"type":"Point","coordinates":[-79.457564675999947,43.702173173000062]},"properties":{"OBJECTID":42,"id":42,"address_number":"79","address_street":"Wingold Ave","address":"79 Wingold Ave","postal_code":"M6B 1P8","municipality":"North York","city":"Toronto","ward":"Eglinton-Lawrence (8)","name":"Jamis Bicycles Canada RB inc","unit":"10","phone":"416-787-4998","email":"rb@rbinc-sports.com","rental":"NO "}},{"type":"Feature","id":43,"geometry":{"type":"Point","coordinates":[-79.431225947999963,43.674874241000055]},"properties":{"OBJECTID":43,"id":43,"address_number":"1144","address_street":"Davenport Rd","address":"1144 Davenport Rd","postal_code":"M6G 2C6","municipality":"former Toronto","city":"Toronto","ward":"Davenport (9)","name":"L & J Cycle","unit":"None","phone":"416-656-5293","email":"None","rental":"NO"}},{"type":"Feature","id":44,"geometry":{"type":"Point","coordinates":[-79.455208158999937,43.700242120000041]},"properties":{"OBJECTID":44,"id":44,"address_number":"1180","address_street":"Castlefield Ave","address":"1180 Castlefield Ave","postal_code":"M6B 1G1","municipality":"York","city":"Toronto","ward":"Eglinton-Lawrence (8)","name":"La Bicicletta","unit":"None","phone":"416-762-2679 or 1-800-489-8430","email":"info@labicicletta.com ","rental":"NO"}},{"type":"Feature","id":45,"geometry":{"type":"Point","coordinates":[-79.454705261999948,43.664714128000071]},"properties":{"OBJECTID":45,"id":45,"address_number":"1611","address_street":"Dupont St","address":"1611 Dupont St","postal_code":"M6P 3S8","municipality":"former Toronto","city":"Toronto","ward":"Davenport (9)","name":"La Carrera Cycles","unit":"None","phone":"416-538-1203","email":"None","rental":"NO"}},{"type":"Feature","id":46,"geometry":{"type":"Point","coordinates":[-79.41956705299998,43.647094056000071]},"properties":{"OBJECTID":46,"id":46,"address_number":"127","address_street":"Ossington Ave","address":"127 Ossington Ave","postal_code":"M6J 2Z6","municipality":"former Toronto","city":"Toronto","ward":"Spadina-Fort York (10)","name":"The Pedal Stop","unit":"None","phone":"647-352-3240","email":"None","rental":"NO"}},{"type":"Feature","id":47,"geometry":{"type":"Point","coordinates":[-79.415068262999966,43.660556964000079]},"properties":{"OBJECTID":47,"id":47,"address_number":"290","address_street":"Harbord St","address":"290 Harbord St","postal_code":"None","municipality":"former Toronto","city":"Toronto","ward":"University-Rosedale (11)","name":"The Bike Joint","unit":"None","phone":"416-532-6392","email":"service@thebikejoint.com ","rental":"NO"}},{"type":"Feature","id":48,"geometry":{"type":"Point","coordinates":[-79.371762191999949,43.617143003000081]},"properties":{"OBJECTID":48,"id":48,"address_number":"355","address_street":"Lakeshore Ave","address":"355 Lakeshore Ave","postal_code":"None","municipality":"former Toronto","city":"Toronto","ward":"Spadina-Fort York (10)","name":"Toronto Island Bicycle Rental","unit":"None","phone":"416-203-0009","email":"None","rental":"YES"}},{"type":"Feature","id":49,"geometry":{"type":"Point","coordinates":[-79.39705113399998,43.702274309000074]},"properties":{"OBJECTID":49,"id":49,"address_number":"2063","address_street":"Yonge St","address":"2063 Yonge St","postal_code":"M4S 2A2","municipality":"former Toronto","city":"Toronto","ward":"Toronto-St. Paul's (12)","name":"Trek Bicycle Store of Toronto","unit":"None","phone":"416-481-8735","email":"info@trektoronto.ca","rental":"NO"}},{"type":"Feature","id":50,"geometry":{"type":"Point","coordinates":[-79.391752670999949,43.65068407800004]},"properties":{"OBJECTID":50,"id":50,"address_number":"180","address_street":"John St","address":"180 John St","postal_code":"M5T 1X5","municipality":"former Toronto","city":"Toronto","ward":"Spadina-Fort York (10)","name":"Urbane Cyclist","unit":"None","phone":"416-979-9733","email":"ucycle@ucycle.com ","rental":"NO"}},{"type":"Feature","id":51,"geometry":{"type":"Point","coordinates":[-79.317911770999956,43.666214647000061]},"properties":{"OBJECTID":51,"id":51,"address_number":"1592","address_street":"Queen St E","address":"1592 Queen St E","postal_code":"M4L 1G1","municipality":"former Toronto","city":"Toronto","ward":"Toronto-Danforth (14)","name":"Velotique","unit":"None","phone":"416-466-3171","email":"saul@velotique.com ","rental":"NO"}},{"type":"Feature","id":52,"geometry":{"type":"Point","coordinates":[-79.43030628799994,43.700175624000053]},"properties":{"OBJECTID":52,"id":52,"address_number":"1040","address_street":"Eglinton Ave W","address":"1040 Eglinton Ave W","postal_code":"M6C 2C5","municipality":"former Toronto","city":"Toronto","ward":"Eglinton-Lawrence (8)","name":"Vitess","unit":"None","phone":"416-503-8987","email":"testdrive@vitess.com ","rental":"NO"}},{"type":"Feature","id":53,"geometry":{"type":"Point","coordinates":[-79.343280396999944,43.660542494000026]},"properties":{"OBJECTID":53,"id":53,"address_number":"890","address_street":"Queen St E","address":"890 Queen St E","postal_code":"M4M 1J3","municipality":"former Toronto","city":"Toronto","ward":"Toronto-Danforth (14)","name":"Warren Cycle Works","unit":"None","phone":"416-466-6958","email":"None","rental":"NO"}},{"type":"Feature","id":54,"geometry":{"type":"Point","coordinates":[-79.448538858999939,43.64564697600008]},"properties":{"OBJECTID":54,"id":54,"address_number":"213","address_street":"Roncesvalles Ave","address":"213 Roncesvalles Ave","postal_code":"M6R 2L6","municipality":"former Toronto","city":"Toronto","ward":"Parkdale-High Park (4)","name":"West Side Cycle","unit":"None","phone":"416-531-4648","email":"westsidecycle@rogers.com","rental":"NO"}},{"type":"Feature","id":55,"geometry":{"type":"Point","coordinates":[-79.385711225999955,43.63865000900006]},"properties":{"OBJECTID":55,"id":55,"address_number":"249","address_street":"Queens Quay W","address":"249 Queens Quay W","postal_code":"M5J 2N5","municipality":"former Toronto","city":"Toronto","ward":"Spadina-Fort York (10)","name":"Wheels Excitement Inc.","unit":"106","phone":"416-260-9000","email":"info@wheelexcitment.com ","rental":"YES "}},{"type":"Feature","id":56,"geometry":{"type":"Point","coordinates":[-79.471916443999987,43.651822582000079]},"properties":{"OBJECTID":56,"id":56,"address_number":"2007","address_street":"Bloor St W","address":"2007 Bloor St W","postal_code":"M6S 1M5","municipality":"former Toronto","city":"Toronto","ward":"Parkdale-High Park (4)","name":"Wheels of Bloor","unit":"None","phone":"416-762-9119","email":"wheelsofbloor@bellnet.ca ","rental":"NO"}},{"type":"Feature","id":57,"geometry":{"type":"Point","coordinates":[-79.44626743799995,43.686746283000048]},"properties":{"OBJECTID":57,"id":57,"address_number":"2055","address_street":"Dufferin St","address":"2055 Dufferin St","postal_code":"M6E 3R3","municipality":"York","city":"Toronto","ward":"Toronto-St. Paul's (12)","name":"ZM Cycle & Fitness","unit":"None","phone":"416-652-0080","email":"zmcyclefitness@bellnet.ca ","rental":"NO"}},{"type":"Feature","id":58,"geometry":{"type":"Point","coordinates":[-79.423598143999982,43.681839828000079]},"properties":{"OBJECTID":58,"id":58,"address_number":"625","address_street":"St Clair Ave W","address":"625 St Clair Ave W","postal_code":"M6C 1A7","municipality":"former Toronto","city":"Toronto","ward":"Toronto-St. Paul's (12)","name":"Bicycle at St.Clair Inc.","unit":"None","phone":"416-654-6187","email":"bicyclesatstclair@gmail.com ","rental":"NO"}},{"type":"Feature","id":59,"geometry":{"type":"Point","coordinates":[-79.375258715999962,43.706893653000066]},"properties":{"OBJECTID":59,"id":59,"address_number":"1639B","address_street":"Bayview Ave","address":"1639B Bayview Ave","postal_code":"M4G 3B5","municipality":"East York","city":"Toronto","ward":"Don Valley West (15)","name":"Flying Wheels","unit":"None","phone":"416-487-5601","email":"flyingwheels@yahoo.ca","rental":"NO"}},{"type":"Feature","id":60,"geometry":{"type":"Point","coordinates":[-79.439229983999951,43.659301885000048]},"properties":{"OBJECTID":60,"id":60,"address_number":"1222","address_street":"Bloor St W","address":"1222 Bloor St W","postal_code":"M6H 1N3","municipality":"former Toronto","city":"Toronto","ward":"Davenport (9)","name":"Broadway Cycle","unit":"None","phone":"416-531-1028","email":"broadwaycycle@rogers.com ","rental":"NO"}},{"type":"Feature","id":61,"geometry":{"type":"Point","coordinates":[-79.397926619999964,43.702745924000055]},"properties":{"OBJECTID":61,"id":61,"address_number":"2106","address_street":"Yonge St","address":"2106 Yonge St","postal_code":"M4S 2A5","municipality":"former Toronto","city":"Toronto","ward":"Toronto-St. Paul's (12)","name":"Cyclepath","unit":"None","phone":"416-487-1717","email":"mike@cyclepathtoronto.com ","rental":"YES"}},{"type":"Feature","id":62,"geometry":{"type":"Point","coordinates":[-79.393342812999947,43.645644394000044]},"properties":{"OBJECTID":62,"id":62,"address_number":"383","address_street":"King St W","address":"383 King St W","postal_code":"M5V 1K1","municipality":"former Toronto","city":"Toronto","ward":"Spadina-Fort York (10)","name":"Europe Bound","unit":"None","phone":"416-205-9992","email":"europeboundsales@gmail.com","rental":"NO"}},{"type":"Feature","id":63,"geometry":{"type":"Point","coordinates":[-79.450455445999978,43.653418996000028]},"properties":{"OBJECTID":63,"id":63,"address_number":"2170","address_street":"Dundas St W","address":"2170 Dundas St W","postal_code":"M6R 1X3","municipality":"former Toronto","city":"Toronto","ward":"Parkdale-High Park (4)","name":"Mojo Cycles","unit":"None","phone":"416-649-7696","email":"sales@mojocycles.ca ","rental":"NO"}},{"type":"Feature","id":64,"geometry":{"type":"Point","coordinates":[-79.36562797199997,43.683783350000056]},"properties":{"OBJECTID":64,"id":64,"address_number":"550","address_street":"Bayview Ave","address":"550 Bayview Ave","postal_code":"M4W 3X8","municipality":"East York","city":"Toronto","ward":"University-Rosedale (11)","name":"Bike Works ","unit":"None","phone":"416-596-7670","email":"bikeworks@evergreen.ca ","rental":"YES"}},{"type":"Feature","id":65,"geometry":{"type":"Point","coordinates":[-79.512747316999935,43.659493547000068]},"properties":{"OBJECTID":65,"id":65,"address_number":"4231","address_street":"Dundas St W","address":"4231 Dundas St W","postal_code":"M8X 1Y3","municipality":"Etobicoke","city":"Toronto","ward":"Etobicoke-Lakeshore (3)","name":"Chain Reaction Bicycles Inc.","unit":"None","phone":"416-234-5300","email":"crbicycles@yahoo.com","rental":"NO"}},{"type":"Feature","id":66,"geometry":{"type":"Point","coordinates":[-79.362115409999944,43.705776078000042]},"properties":{"OBJECTID":66,"id":66,"address_number":"94","address_street":"Laird Dr","address":"94 Laird Dr","postal_code":"M4G 3V2","municipality":"East York","city":"Toronto","ward":"Don Valley West (15)","name":"Endurosport","unit":"None","phone":"416-449-0432","email":"leaside@endurosport.com","rental":"YES"}},{"type":"Feature","id":67,"geometry":{"type":"Point","coordinates":[-79.359144580999953,43.712644941000065]},"properties":{"OBJECTID":67,"id":67,"address_number":"109","address_street":"Vanderhoof Ave","address":"109 Vanderhoof Ave","postal_code":"M4G 2H7","municipality":"East York","city":"Toronto","ward":"Don Valley West (15)","name":"Gears Bike Shop","unit":"None","phone":"647-729-2500 or 1-888-984-3277","email":"ira@gearsbikeshop.com ","rental":"NO"}},{"type":"Feature","id":68,"geometry":{"type":"Point","coordinates":[-79.49133567399997,43.665248433000045]},"properties":{"OBJECTID":68,"id":68,"address_number":"612","address_street":"Jane St","address":"612 Jane St","postal_code":"M6S 4A6","municipality":"York","city":"Toronto","ward":"Parkdale-High Park (4)","name":"Newsons","unit":"None","phone":"416-762-9976","email":"info@newsons.ca ","rental":"NO"}},{"type":"Feature","id":69,"geometry":{"type":"Point","coordinates":[-79.342430123999975,43.693609699000035]},"properties":{"OBJECTID":69,"id":69,"address_number":"389","address_street":"Donlands Ave","address":"389 Donlands Ave","postal_code":"M4J 3S2","municipality":"East York","city":"Toronto","ward":"Toronto-Danforth (14)","name":"Benjamin Sports Sales & Services","unit":"None","phone":"416-429-0493","email":"bikes@benjaminsports.com","rental":"NO"}},{"type":"Feature","id":70,"geometry":{"type":"Point","coordinates":[-79.408157029999984,43.64620282900006]},"properties":{"OBJECTID":70,"id":70,"address_number":"779","address_street":"Queen St W","address":"779 Queen St W","postal_code":"M6J 1G1","municipality":"former Toronto","city":"Toronto","ward":"Spadina-Fort York (10)","name":"Bikes On Wheels","unit":"None","phone":"647-352-6550","email":"queenstreet@bikesonwheels.ca","rental":"NO"}},{"type":"Feature","id":71,"geometry":{"type":"Point","coordinates":[-79.368591703999982,43.654985303000046]},"properties":{"OBJECTID":71,"id":71,"address_number":"242","address_street":"Queen St E","address":"242 Queen St E","postal_code":"M5A 1S3","municipality":"former Toronto","city":"Toronto","ward":"Toronto Centre (13)","name":"Charlie's Bike Joint ","unit":"None","phone":"416-546-2200","email":"charlies@thebikejoint.com ","rental":"NO"}},{"type":"Feature","id":72,"geometry":{"type":"Point","coordinates":[-79.403942674999939,43.646059376000039]},"properties":{"OBJECTID":72,"id":72,"address_number":"156","address_street":"Bathurst St","address":"156 Bathurst St","postal_code":"M5V 2R3","municipality":"former Toronto","city":"Toronto","ward":"Spadina-Fort York (10)","name":"Cyclemotive","unit":"None","phone":"416-916-5551","email":"info@cyclemotive.com ","rental":"NO"}},{"type":"Feature","id":73,"geometry":{"type":"Point","coordinates":[-79.526731118999976,43.742718849000028]},"properties":{"OBJECTID":73,"id":73,"address_number":"134","address_street":"Oakdale Rd","address":"134 Oakdale Rd","postal_code":"M3N 1V9","municipality":"North York","city":"Toronto","ward":"Humber River-Black Creek (7)","name":"Daymak (Electric Bicycles)","unit":"None","phone":"416-749-2324\u00A0","email":"customerservice@daymak.com or sales@daymak.com ","rental":"NO"}},{"type":"Feature","id":74,"geometry":{"type":"Point","coordinates":[-79.393971360999956,43.645465501000047]},"properties":{"OBJECTID":74,"id":74,"address_number":"401","address_street":"King St W","address":"401 King St W","postal_code":"M5V 1K1","municipality":"former Toronto","city":"Toronto","ward":"Spadina-Fort York (10)","name":"Hogtown Extreme Sports","unit":"None","phone":"416-598-4192","email":"hogtown1@yahoo.ca","rental":"NO"}},{"type":"Feature","id":75,"geometry":{"type":"Point","coordinates":[-79.399997913999982,43.656528427000069]},"properties":{"OBJECTID":75,"id":75,"address_number":"5","address_street":"Oxford St","address":"5 Oxford St","postal_code":"M5T 1N8","municipality":"former Toronto","city":"Toronto","ward":"University-Rosedale (11)","name":"Mike the Bike","unit":"None","phone":"647-344-3570 or 416-595-5596","email":"info@mikethebike.ca ","rental":"NO"}},{"type":"Feature","id":76,"geometry":{"type":"Point","coordinates":[-79.41245444599997,43.664352128000075]},"properties":{"OBJECTID":76,"id":76,"address_number":"610","address_street":"Markham St","address":"610 Markham St","postal_code":"M6G 2L8","municipality":"former Toronto","city":"Toronto","ward":"University-Rosedale (11)","name":"Lapierre Toronto","unit":"None","phone":"416-537-7139","email":"None","rental":"NO"}},{"type":"Feature","id":77,"geometry":{"type":"Point","coordinates":[-79.417795876999946,43.638324576000059]},"properties":{"OBJECTID":77,"id":77,"address_number":"171","address_street":"East Liberty St","address":"171 East Liberty St","postal_code":"M6K 3P6","municipality":"former Toronto","city":"Toronto","ward":"Spadina-Fort York (10)","name":"Liberty Street Cyclery","unit":"125","phone":"416-516-8880","email":"info@libertycyclery.com ","rental":"NO"}},{"type":"Feature","id":78,"geometry":{"type":"Point","coordinates":[-79.432635888999982,43.633846023000046]},"properties":{"OBJECTID":78,"id":78,"address_number":"74","address_street":"Springhurst Ave","address":"74 Springhurst Ave","postal_code":"M6K 1B8","municipality":"former Toronto","city":"Toronto","ward":"Parkdale-High Park (4)","name":"MetroCycleTO","unit":"None","phone":"647-771-1650","email":"info@metrocycleto.com ","rental":"NO"}},{"type":"Feature","id":79,"geometry":{"type":"Point","coordinates":[-79.400888702999964,43.652423919000057]},"properties":{"OBJECTID":79,"id":79,"address_number":"594","address_street":"Dundas St W","address":"594 Dundas St W","postal_code":"M5T 1H5","municipality":"former Toronto","city":"Toronto","ward":"University-Rosedale (11)","name":"Bike House ","unit":"None","phone":"416-839-6401","email":"bikehouse.ca@hotmail.com","rental":"NO"}},{"type":"Feature","id":80,"geometry":{"type":"Point","coordinates":[-79.408085579999977,43.665979533000041]},"properties":{"OBJECTID":80,"id":80,"address_number":"412","address_street":"Bloor St W","address":"412 Bloor St W","postal_code":"M5S 1X5","municipality":"former Toronto","city":"Toronto","ward":"University-Rosedale (11)","name":"Curbside Cycle","unit":"None","phone":"416-920-4933 or 1-(866)-920-4933","email":"info@curbside.on.ca info@curbside.on.ca ","rental":"YES"}},{"type":"Feature","id":81,"geometry":{"type":"Point","coordinates":[-79.406442308999942,43.646946122000031]},"properties":{"OBJECTID":81,"id":81,"address_number":"650","address_street":"Queen St W","address":"650 Queen St W","postal_code":"M6J 1E4","municipality":"former Toronto","city":"Toronto","ward":"Spadina-Fort York (10)","name":"Giant Toronto ","unit":"None","phone":"416-703-9990","email":"info@gianttoronto.com ","rental":"NO"}},{"type":"Feature","id":82,"geometry":{"type":"Point","coordinates":[-79.472415317999946,43.65222871900005]},"properties":{"OBJECTID":82,"id":82,"address_number":"2128","address_street":"Bloor St W","address":"2128 Bloor St W","postal_code":"M6S 1M8","municipality":"former Toronto","city":"Toronto","ward":"Parkdale-High Park (4)","name":"Popawheelie (Toronto's Family Bike Shop) ","unit":"None","phone":"416-769-0606","email":"info@popawheelie.ca ","rental":"NO"}},{"type":"Feature","id":83,"geometry":{"type":"Point","coordinates":[-79.476057863999984,43.651433694000048]},"properties":{"OBJECTID":83,"id":83,"address_number":"2214","address_street":"Bloor St W","address":"2214 Bloor St W","postal_code":"M6S 1N4","municipality":"former Toronto","city":"Toronto","ward":"Parkdale-High Park (4)","name":"Racer Sportif","unit":"None","phone":"416-769-5731","email":"info@racersportif.com ","rental":"NO"}},{"type":"Feature","id":84,"geometry":{"type":"Point","coordinates":[-79.399850632999971,43.653131439000049]},"properties":{"OBJECTID":84,"id":84,"address_number":"19","address_street":"Kensington Ave","address":"19 Kensington Ave","postal_code":"M5T 2J8","municipality":"former Toronto","city":"Toronto","ward":"University-Rosedale (11)","name":"Red Arrow Bikes","unit":"None","phone":"416-464-4243","email":"None","rental":"NO"}},{"type":"Feature","id":85,"geometry":{"type":"Point","coordinates":[-79.375753725999971,43.651520696000034]},"properties":{"OBJECTID":85,"id":85,"address_number":"33","address_street":"Lombard St","address":"33 Lombard St","postal_code":"M5C 3H8","municipality":"former Toronto","city":"Toronto","ward":"Toronto Centre (13)","name":"Regal Bicycles Inc.","unit":"1506","phone":"416-768-5416","email":"info@regalbicycles.com ","rental":"NO"}},{"type":"Feature","id":86,"geometry":{"type":"Point","coordinates":[-79.407728284999962,43.652172575000066]},"properties":{"OBJECTID":86,"id":86,"address_number":"778","address_street":"Dundas St W","address":"778 Dundas St W","postal_code":"M6J 1V1","municipality":"former Toronto","city":"Toronto","ward":"University-Rosedale (11)","name":"Ride Away Bikes ","unit":"None","phone":"647-352-7433","email":"info@rideawaybikes.ca","rental":"NO"}},{"type":"Feature","id":87,"geometry":{"type":"Point","coordinates":[-79.433089680999956,43.670981644000051]},"properties":{"OBJECTID":87,"id":87,"address_number":"80","address_street":"Geary Ave","address":"80 Geary Ave","postal_code":"M6H 2B5","municipality":"former Toronto","city":"Toronto","ward":"Davenport (9)","name":"Riders Cycle & Board","unit":"None","phone":"647-349-5649","email":"None","rental":"NO"}},{"type":"Feature","id":88,"geometry":{"type":"Point","coordinates":[-79.351803669999981,43.71299104700006]},"properties":{"OBJECTID":88,"id":88,"address_number":"95","address_street":"Research Rd","address":"95 Research Rd","postal_code":"M4G 2G8","municipality":"East York","city":"Toronto","ward":"Don Valley West (15)","name":"Sandy's Cycle Shop and Books","unit":"1","phone":"416-467-1035","email":"sandyscycle@hotmail.com ","rental":"NO"}},{"type":"Feature","id":89,"geometry":{"type":"Point","coordinates":[-79.450349348999964,43.650276962000078]},"properties":{"OBJECTID":89,"id":89,"address_number":"381","address_street":"Roncesvalles Ave","address":"381 Roncesvalles Ave","postal_code":"M6R 2M8","municipality":"former Toronto","city":"Toronto","ward":"Parkdale-High Park (4)","name":"Set Me Free (Recycle Bike Co.)","unit":"None","phone":"416-532-4147","email":"None","rental":"YES"}},{"type":"Feature","id":90,"geometry":{"type":"Point","coordinates":[-79.343301433999954,43.72622620900006]},"properties":{"OBJECTID":90,"id":90,"address_number":"896","address_street":"Don Mills Rd","address":"896 Don Mills Rd","postal_code":"M3C 1V6","municipality":"North York","city":"Toronto","ward":"Don Valley East (16)","name":"Skiis and Biikes","unit":"None","phone":"416-391-0654","email":"toronto@skiisandbikes.com ","rental":"NO"}},{"type":"Feature","id":91,"geometry":{"type":"Point","coordinates":[-79.419172892999939,43.732674838000037]},"properties":{"OBJECTID":91,"id":91,"address_number":"1889","address_street":"Avenue Rd","address":"1889 Avenue Rd","postal_code":"M5M 3Z9","municipality":"North York","city":"Toronto","ward":"Eglinton-Lawrence (8)","name":"Spokes And Sports","unit":"None","phone":"416-787-6238","email":"info@spokesandsports.com ","rental":"NO"}},{"type":"Feature","id":92,"geometry":{"type":"Point","coordinates":[-79.374635837999961,43.705059556000037]},"properties":{"OBJECTID":92,"id":92,"address_number":"1541","address_street":"Bayview Ave","address":"1541 Bayview Ave","postal_code":"M4G 3B5","municipality":"East York","city":"Toronto","ward":"Don Valley West (15)","name":"Sport Swap","unit":"None","phone":"416-481-7927","email":"info@sportswap.com ","rental":"NO"}},{"type":"Feature","id":93,"geometry":{"type":"Point","coordinates":[-79.399570049999966,43.711022528000058]},"properties":{"OBJECTID":93,"id":93,"address_number":"2454","address_street":"Yonge St","address":"2454 Yonge St","postal_code":"M4P 2H5","municipality":"former Toronto","city":"Toronto","ward":"Eglinton-Lawrence (8)","name":"Sporting Life Bikes and Boards","unit":"None","phone":"416-485-4440","email":"david.reynolds@sportinglife.ca","rental":"NO"}},{"type":"Feature","id":94,"geometry":{"type":"Point","coordinates":[-79.557207008999967,43.611947108000038]},"properties":{"OBJECTID":94,"id":94,"address_number":"25","address_street":"The West Mall","address":"25 The West Mall","postal_code":"M9C 1B8","municipality":"Etobicoke","city":"Toronto","ward":"Etobicoke-Lakeshore (3)","name":"Sporting Life Sherway Gardens","unit":"None","phone":"416 620-7750","email":"None","rental":"NO"}},{"type":"Feature","id":95,"geometry":{"type":"Point","coordinates":[-79.399923319999971,43.716363582000042]},"properties":{"OBJECTID":95,"id":95,"address_number":"2665","address_street":"Yonge St","address":"2665 Yonge St","postal_code":"M4P 2J6","municipality":"former Toronto","city":"Toronto","ward":"Don Valley West (15)","name":"Sporting Life Store Yonge St. Store","unit":"None","phone":"416-485-1611","email":"None","rental":"NO"}},{"type":"Feature","id":96,"geometry":{"type":"Point","coordinates":[-79.43838711799998,43.659434456000042]},"properties":{"OBJECTID":96,"id":96,"address_number":"1204","address_street":"Bloor St W","address":"1204 Bloor St W","postal_code":"M6H 1N2","municipality":"former Toronto","city":"Toronto","ward":"Davenport (9)","name":"Sweet Pete's Bike Shop","unit":"None","phone":"416 533-4481","email":"info@sweetpetes.com ","rental":"YES"}},{"type":"Feature","id":97,"geometry":{"type":"Point","coordinates":[-79.408925128999954,43.665389961000074]},"properties":{"OBJECTID":97,"id":97,"address_number":"517","address_street":"Bloor St W","address":"517 Bloor St W","postal_code":"M5S 1Y4","municipality":"former Toronto","city":"Toronto","ward":"University-Rosedale (11)","name":"Sweet Pete's Bike Shop","unit":"None","phone":"416 533-4225","email":"info@sweetpetes.com ","rental":"NO"}},{"type":"Feature","id":98,"geometry":{"type":"Point","coordinates":[-79.352037050999968,43.65819829600008]},"properties":{"OBJECTID":98,"id":98,"address_number":"651","address_street":"Queen St E","address":"651 Queen St E","postal_code":"M4M 1G4","municipality":"former Toronto","city":"Toronto","ward":"Toronto-Danforth (14)","name":"Switchback Cyclery","unit":"None","phone":"416-466-6776","email":"propel@switchbackcyclery.ca ","rental":"NO"}}]}